{
"type": "FeatureCollection",
"features": [
{ "type": "Feature", "properties": { "index": 0, "SiteName": "Jacobs", "AgencyName": "North Coast Unified Air Quality Management District", "FullAQSCode": "060231004", "IntlAQSCode": "840060231004" }, "geometry": { "type": "Point", "coordinates": [ -124.177498, 40.776943 ] } },
{ "type": "Feature", "properties": { "index": 5, "SiteName": "Fort Bragg High School", "AgencyName": "Mendocino County AQMD", "FullAQSCode": "060450010", "IntlAQSCode": "840060450010" }, "geometry": { "type": "Point", "coordinates": [ -123.78766, 39.43734 ] } },
{ "type": "Feature", "properties": { "index": 6, "SiteName": "Willits Justice Center", "AgencyName": "Mendocino County AQMD", "FullAQSCode": "060452002", "IntlAQSCode": "840060452002" }, "geometry": { "type": "Point", "coordinates": [ -123.352661, 39.411743 ] } },
{ "type": "Feature", "properties": { "index": 7, "SiteName": "MMCA82038", "AgencyName": "California Air Resources Board", "FullAQSCode": "840MMCA82038", "IntlAQSCode": "840840MMCA82038" }, "geometry": { "type": "Point", "coordinates": [ -123.236089, 38.907319 ] } },
{ "type": "Feature", "properties": { "index": 8, "SiteName": "Ukiah Library", "AgencyName": "Mendocino County AQMD", "FullAQSCode": "060450006", "IntlAQSCode": "840060450006" }, "geometry": { "type": "Point", "coordinates": [ -123.206528, 39.150478 ] } },
{ "type": "Feature", "properties": { "index": 9, "SiteName": "Ukiah District Office", "AgencyName": "Mendocino County AQMD", "FullAQSCode": "060450008", "IntlAQSCode": "840060450008" }, "geometry": { "type": "Point", "coordinates": [ -123.202995, 39.145733 ] } },
{ "type": "Feature", "properties": { "index": 10, "SiteName": "MMCA82009", "AgencyName": "California Air Resources Board", "FullAQSCode": "840MMCA82009", "IntlAQSCode": "840840MMCA82009" }, "geometry": { "type": "Point", "coordinates": [ -123.024817, 38.800439 ] } },
{ "type": "Feature", "properties": { "index": 11, "SiteName": "Weaverville", "AgencyName": "North Coast Unified Air Quality Management District", "FullAQSCode": "061050002", "IntlAQSCode": "840061050002" }, "geometry": { "type": "Point", "coordinates": [ -122.941109, 40.734722 ] } },
{ "type": "Feature", "properties": { "index": 12, "SiteName": "Sebastopol", "AgencyName": "San Francisco Bay Area AQMD", "FullAQSCode": "060970004", "IntlAQSCode": "840060970004" }, "geometry": { "type": "Point", "coordinates": [ -122.818294, 38.403765 ] } },
{ "type": "Feature", "properties": { "index": 16, "SiteName": "Yreka", "AgencyName": "Siskiyou County APCD", "FullAQSCode": "060932001", "IntlAQSCode": "840060932001" }, "geometry": { "type": "Point", "coordinates": [ -122.63359, 41.72679 ] } },
{ "type": "Feature", "properties": { "index": 18, "SiteName": "San Rafael", "AgencyName": "San Francisco Bay Area AQMD", "FullAQSCode": "060410001", "IntlAQSCode": "840060410001" }, "geometry": { "type": "Point", "coordinates": [ -122.5189, 37.9722 ] } },
{ "type": "Feature", "properties": { "index": 22, "SiteName": "Shasta Lake City", "AgencyName": "Shasta County Air Quality Management District", "FullAQSCode": "060890009", "IntlAQSCode": "840060890009" }, "geometry": { "type": "Point", "coordinates": [ -122.4024, 40.6894 ] } },
{ "type": "Feature", "properties": { "index": 23, "SiteName": "San Francisco", "AgencyName": "San Francisco Bay Area AQMD", "FullAQSCode": "060750005", "IntlAQSCode": "840060750005" }, "geometry": { "type": "Point", "coordinates": [ -122.3978, 37.7658 ] } },
{ "type": "Feature", "properties": { "index": 27, "SiteName": "Redding", "AgencyName": "Shasta County Air Quality Management District", "FullAQSCode": "060890004", "IntlAQSCode": "840060890004" }, "geometry": { "type": "Point", "coordinates": [ -122.3792, 40.5497 ] } },
{ "type": "Feature", "properties": { "index": 29, "SiteName": "Richmond - 7th St", "AgencyName": "San Francisco Bay Area AQMD", "FullAQSCode": "060130006", "IntlAQSCode": "840060130006" }, "geometry": { "type": "Point", "coordinates": [ -122.3636, 37.9478 ] } },
{ "type": "Feature", "properties": { "index": 30, "SiteName": "San Pablo - Rumrill", "AgencyName": "San Francisco Bay Area AQMD", "FullAQSCode": "060131004", "IntlAQSCode": "840060131004" }, "geometry": { "type": "Point", "coordinates": [ -122.3571, 37.9604 ] } },
{ "type": "Feature", "properties": { "index": 35, "SiteName": "Berkeley Aquatic Park", "AgencyName": "San Francisco Bay Area AQMD", "FullAQSCode": "060010013", "IntlAQSCode": "840060010013" }, "geometry": { "type": "Point", "coordinates": [ -122.302741, 37.864767 ] } },
{ "type": "Feature", "properties": { "index": 39, "SiteName": "Anderson", "AgencyName": "Shasta County Air Quality Management District", "FullAQSCode": "060890007", "IntlAQSCode": "840060890007" }, "geometry": { "type": "Point", "coordinates": [ -122.2978, 40.4531 ] } },
{ "type": "Feature", "properties": { "index": 41, "SiteName": "Oakland West", "AgencyName": "San Francisco Bay Area AQMD", "FullAQSCode": "060010011", "IntlAQSCode": "840060010011" }, "geometry": { "type": "Point", "coordinates": [ -122.282402, 37.8148 ] } },
{ "type": "Feature", "properties": { "index": 46, "SiteName": "Napa - Napa Valley College", "AgencyName": "San Francisco Bay Area AQMD", "FullAQSCode": "060550004", "IntlAQSCode": "840060550004" }, "geometry": { "type": "Point", "coordinates": [ -122.275024, 38.278849 ] } },
{ "type": "Feature", "properties": { "index": 50, "SiteName": "Laney College", "AgencyName": "San Francisco Bay Area AQMD", "FullAQSCode": "060010012", "IntlAQSCode": "840060010012" }, "geometry": { "type": "Point", "coordinates": [ -122.263376, 37.793624 ] } },
{ "type": "Feature", "properties": { "index": 53, "SiteName": "Red Bluff - Walnut office", "AgencyName": "Tehama County Air Pollution Control District", "FullAQSCode": "061030007", "IntlAQSCode": "840061030007" }, "geometry": { "type": "Point", "coordinates": [ -122.255667, 40.170917 ] } },
{ "type": "Feature", "properties": { "index": 55, "SiteName": "Vallejo", "AgencyName": "San Francisco Bay Area AQMD", "FullAQSCode": "060950004", "IntlAQSCode": "840060950004" }, "geometry": { "type": "Point", "coordinates": [ -122.237976, 38.102507 ] } },
{ "type": "Feature", "properties": { "index": 60, "SiteName": "Redwood City", "AgencyName": "San Francisco Bay Area AQMD", "FullAQSCode": "060811001", "IntlAQSCode": "840060811001" }, "geometry": { "type": "Point", "coordinates": [ -122.2022, 37.4828 ] } },
{ "type": "Feature", "properties": { "index": 64, "SiteName": "Willows-Colusa", "AgencyName": "California Air Resources Board", "FullAQSCode": "060210003", "IntlAQSCode": "840060210003" }, "geometry": { "type": "Point", "coordinates": [ -122.190834, 39.53387 ] } },
{ "type": "Feature", "properties": { "index": 67, "SiteName": "Oakland", "AgencyName": "San Francisco Bay Area AQMD", "FullAQSCode": "060010009", "IntlAQSCode": "840060010009" }, "geometry": { "type": "Point", "coordinates": [ -122.169907, 37.743061 ] } },
{ "type": "Feature", "properties": { "index": 71, "SiteName": "Martinez - Jones St", "AgencyName": "San Francisco Bay Area AQMD", "FullAQSCode": "060132001", "IntlAQSCode": "840060132001" }, "geometry": { "type": "Point", "coordinates": [ -122.1333, 38.0125 ] } },
{ "type": "Feature", "properties": { "index": 72, "SiteName": "Tuscan Butte (Seasonal)", "AgencyName": "California Air Resources Board", "FullAQSCode": "061030004", "IntlAQSCode": "840061030004" }, "geometry": { "type": "Point", "coordinates": [ -122.09265, 40.26207 ] } },
{ "type": "Feature", "properties": { "index": 73, "SiteName": "SLV Middle School AMS", "AgencyName": "Monterey Bay Unified APCD", "FullAQSCode": "060871005", "IntlAQSCode": "840060871005" }, "geometry": { "type": "Point", "coordinates": [ -122.083092, 37.06315 ] } },
{ "type": "Feature", "properties": { "index": 74, "SiteName": "Fairfield", "AgencyName": "San Francisco Bay Area AQMD", "FullAQSCode": "060950005", "IntlAQSCode": "840060950005" }, "geometry": { "type": "Point", "coordinates": [ -122.075624, 38.227066 ] } },
{ "type": "Feature", "properties": { "index": 75, "SiteName": "Hayward", "AgencyName": "San Francisco Bay Area AQMD", "FullAQSCode": "060012001", "IntlAQSCode": "840060012001" }, "geometry": { "type": "Point", "coordinates": [ -122.0317, 37.6547 ] } },
{ "type": "Feature", "properties": { "index": 76, "SiteName": "Concord", "AgencyName": "San Francisco Bay Area AQMD", "FullAQSCode": "060130002", "IntlAQSCode": "840060130002" }, "geometry": { "type": "Point", "coordinates": [ -122.025, 37.9383 ] } },
{ "type": "Feature", "properties": { "index": 81, "SiteName": "Colusa - Sunrise Blvd.", "AgencyName": "California Air Resources Board", "FullAQSCode": "060111002", "IntlAQSCode": "840060111002" }, "geometry": { "type": "Point", "coordinates": [ -121.99887, 39.18919 ] } },
{ "type": "Feature", "properties": { "index": 84, "SiteName": "Santa Cruz AMS", "AgencyName": "Monterey Bay Unified APCD", "FullAQSCode": "060870007", "IntlAQSCode": "840060870007" }, "geometry": { "type": "Point", "coordinates": [ -121.98822, 36.98332 ] } },
{ "type": "Feature", "properties": { "index": 86, "SiteName": "Los Gatos", "AgencyName": "San Francisco Bay Area AQMD", "FullAQSCode": "060851001", "IntlAQSCode": "840060851001" }, "geometry": { "type": "Point", "coordinates": [ -121.9786, 37.2267 ] } },
{ "type": "Feature", "properties": { "index": 87, "SiteName": "Vacaville", "AgencyName": "Yolo-Solano AQMD", "FullAQSCode": "060953002", "IntlAQSCode": "840060953002" }, "geometry": { "type": "Point", "coordinates": [ -121.9617, 38.3525 ] } },
{ "type": "Feature", "properties": { "index": 89, "SiteName": "San Ramon", "AgencyName": "San Francisco Bay Area AQMD", "FullAQSCode": "060132007", "IntlAQSCode": "840060132007" }, "geometry": { "type": "Point", "coordinates": [ -121.934188, 37.743649 ] } },
{ "type": "Feature", "properties": { "index": 91, "SiteName": "Pleasanton - Owens Ct.", "AgencyName": "San Francisco Bay Area AQMD", "FullAQSCode": "060010015", "IntlAQSCode": "840060010015" }, "geometry": { "type": "Point", "coordinates": [ -121.903019, 37.701222 ] } },
{ "type": "Feature", "properties": { "index": 94, "SiteName": "San Jose - Jackson St.", "AgencyName": "San Francisco Bay Area AQMD", "FullAQSCode": "060850005", "IntlAQSCode": "840060850005" }, "geometry": { "type": "Point", "coordinates": [ -121.8947, 37.3483 ] } },
{ "type": "Feature", "properties": { "index": 99, "SiteName": "San Jose - Knox Ave", "AgencyName": "San Francisco Bay Area AQMD", "FullAQSCode": "060850006", "IntlAQSCode": "840060850006" }, "geometry": { "type": "Point", "coordinates": [ -121.849892, 37.338202 ] } },
{ "type": "Feature", "properties": { "index": 102, "SiteName": "Chico -  East", "AgencyName": "California Air Resources Board", "FullAQSCode": "060070008", "IntlAQSCode": "840060070008" }, "geometry": { "type": "Point", "coordinates": [ -121.84047, 39.76168 ] } },
{ "type": "Feature", "properties": { "index": 107, "SiteName": "Sutter Buttes (seasonal)", "AgencyName": "California Air Resources Board", "FullAQSCode": "061010004", "IntlAQSCode": "840061010004" }, "geometry": { "type": "Point", "coordinates": [ -121.82046, 39.20556 ] } },
{ "type": "Feature", "properties": { "index": 108, "SiteName": "Livermore - Rincon", "AgencyName": "San Francisco Bay Area AQMD", "FullAQSCode": "060010007", "IntlAQSCode": "840060010007" }, "geometry": { "type": "Point", "coordinates": [ -121.784217, 37.687526 ] } },
{ "type": "Feature", "properties": { "index": 111, "SiteName": "Davis - UCD Campus", "AgencyName": "California Air Resources Board", "FullAQSCode": "061130004", "IntlAQSCode": "840061130004" }, "geometry": { "type": "Point", "coordinates": [ -121.7734, 38.53455 ] } },
{ "type": "Feature", "properties": { "index": 114, "SiteName": "Carmel Valley AMS", "AgencyName": "Monterey Bay Unified APCD", "FullAQSCode": "060530002", "IntlAQSCode": "840060530002" }, "geometry": { "type": "Point", "coordinates": [ -121.73333, 36.48187 ] } },
{ "type": "Feature", "properties": { "index": 116, "SiteName": "Woodland", "AgencyName": "Yolo-Solano AQMD", "FullAQSCode": "061131003", "IntlAQSCode": "840061131003" }, "geometry": { "type": "Point", "coordinates": [ -121.7278, 38.6619 ] } },
{ "type": "Feature", "properties": { "index": 118, "SiteName": "Rio Vista", "AgencyName": "Yolo-Solano AQMD", "FullAQSCode": "060959999", "IntlAQSCode": "840060959999" }, "geometry": { "type": "Point", "coordinates": [ -121.70564, 38.18839 ] } },
{ "type": "Feature", "properties": { "index": 119, "SiteName": "Gridley", "AgencyName": "California Air Resources Board", "FullAQSCode": "060074001", "IntlAQSCode": "840060074001" }, "geometry": { "type": "Point", "coordinates": [ -121.66881, 39.32756 ] } },
{ "type": "Feature", "properties": { "index": 120, "SiteName": "Bethel Island", "AgencyName": "San Francisco Bay Area AQMD", "FullAQSCode": "060131002", "IntlAQSCode": "840060131002" }, "geometry": { "type": "Point", "coordinates": [ -121.641918, 38.006311 ] } },
{ "type": "Feature", "properties": { "index": 124, "SiteName": "Salinas AMS", "AgencyName": "Monterey Bay Unified APCD", "FullAQSCode": "060531003", "IntlAQSCode": "840060531003" }, "geometry": { "type": "Point", "coordinates": [ -121.623271, 36.694261 ] } },
{ "type": "Feature", "properties": { "index": 128, "SiteName": "Yuba City", "AgencyName": "California Air Resources Board", "FullAQSCode": "061010003", "IntlAQSCode": "840061010003" }, "geometry": { "type": "Point", "coordinates": [ -121.61884, 39.13868 ] } },
{ "type": "Feature", "properties": { "index": 132, "SiteName": "Paradise - Airport", "AgencyName": "California Air Resources Board", "FullAQSCode": "060070007", "IntlAQSCode": "840060070007" }, "geometry": { "type": "Point", "coordinates": [ -121.617309, 39.708454 ] } },
{ "type": "Feature", "properties": { "index": 133, "SiteName": "San Martin", "AgencyName": "San Francisco Bay Area AQMD", "FullAQSCode": "060852006", "IntlAQSCode": "840060852006" }, "geometry": { "type": "Point", "coordinates": [ -121.5994, 37.0792 ] } },
{ "type": "Feature", "properties": { "index": 134, "SiteName": "Paradise Theater", "AgencyName": "California Air Resources Board", "FullAQSCode": "060072002", "IntlAQSCode": "840060072002" }, "geometry": { "type": "Point", "coordinates": [ -121.59135, 39.77919 ] } },
{ "type": "Feature", "properties": { "index": 135, "SiteName": "Lassen Volcanic NP", "AgencyName": "National Park Service", "FullAQSCode": "060893003", "IntlAQSCode": "840060893003" }, "geometry": { "type": "Point", "coordinates": [ -121.5764, 40.5403 ] } },
{ "type": "Feature", "properties": { "index": 136, "SiteName": "Gilory - 9th Street", "AgencyName": "San Francisco Bay Area AQMD", "FullAQSCode": "060850002", "IntlAQSCode": "840060850002" }, "geometry": { "type": "Point", "coordinates": [ -121.574684, 36.999571 ] } },
{ "type": "Feature", "properties": { "index": 138, "SiteName": "MMCA82044", "AgencyName": "California Air Resources Board", "FullAQSCode": "840MMCA82044", "IntlAQSCode": "840840MMCA82044" }, "geometry": { "type": "Point", "coordinates": [ -121.509025, 38.561357 ] } },
{ "type": "Feature", "properties": { "index": 139, "SiteName": "MMCA82030", "AgencyName": "California Air Resources Board", "FullAQSCode": "840MMCA82030", "IntlAQSCode": "840840MMCA82030" }, "geometry": { "type": "Point", "coordinates": [ -121.508961, 38.561357 ] } },
{ "type": "Feature", "properties": { "index": 140, "SiteName": "MMCA81033", "AgencyName": "California Air Resources Board", "FullAQSCode": "MMCA81033", "IntlAQSCode": "840MMCA81033" }, "geometry": { "type": "Point", "coordinates": [ -121.507158, 38.560821 ] } },
{ "type": "Feature", "properties": { "index": 141, "SiteName": "Bercut Dr", "AgencyName": "Sacramento Metro. AQMD", "FullAQSCode": "060670015", "IntlAQSCode": "840060670015" }, "geometry": { "type": "Point", "coordinates": [ -121.503728, 38.593328 ] } },
{ "type": "Feature", "properties": { "index": 143, "SiteName": "Downtown Sacramento - T Street", "AgencyName": "California Air Resources Board", "FullAQSCode": "060670010", "IntlAQSCode": "840060670010" }, "geometry": { "type": "Point", "coordinates": [ -121.49311, 38.56844 ] } },
{ "type": "Feature", "properties": { "index": 146, "SiteName": "TracyAP", "AgencyName": "San Joaquin Valley Unified APCD", "FullAQSCode": "060773005", "IntlAQSCode": "840060773005" }, "geometry": { "type": "Point", "coordinates": [ -121.4406, 37.6825 ] } },
{ "type": "Feature", "properties": { "index": 150, "SiteName": "Elk Grove", "AgencyName": "Sacramento Metro. AQMD", "FullAQSCode": "060670011", "IntlAQSCode": "840060670011" }, "geometry": { "type": "Point", "coordinates": [ -121.420838, 38.302591 ] } },
{ "type": "Feature", "properties": { "index": 152, "SiteName": "Antelope - North Highlands", "AgencyName": "Sacramento Metro. AQMD", "FullAQSCode": "060670002", "IntlAQSCode": "840060670002" }, "geometry": { "type": "Point", "coordinates": [ -121.38109, 38.71209 ] } },
{ "type": "Feature", "properties": { "index": 153, "SiteName": "Arden Arcade - Del Paso Manor", "AgencyName": "Sacramento Metro. AQMD", "FullAQSCode": "060670006", "IntlAQSCode": "840060670006" }, "geometry": { "type": "Point", "coordinates": [ -121.368007, 38.613804 ] } },
{ "type": "Feature", "properties": { "index": 158, "SiteName": "Hollister AMS", "AgencyName": "Monterey Bay Unified APCD", "FullAQSCode": "060690002", "IntlAQSCode": "840060690002" }, "geometry": { "type": "Point", "coordinates": [ -121.3621, 36.843425 ] } },
{ "type": "Feature", "properties": { "index": 175, "SiteName": "Pinnacles NM", "AgencyName": "National Park Service", "FullAQSCode": "060690003", "IntlAQSCode": "840060690003" }, "geometry": { "type": "Point", "coordinates": [ -121.155602, 36.485001 ] } },
{ "type": "Feature", "properties": { "index": 161, "SiteName": "Lincoln", "AgencyName": "Placer County APCD", "FullAQSCode": "060612001", "IntlAQSCode": "840060612001" }, "geometry": { "type": "Point", "coordinates": [ -121.3, 38.89 ] } },
{ "type": "Feature", "properties": { "index": 163, "SiteName": "Stockton - Hazelton Street", "AgencyName": "California Air Resources Board", "FullAQSCode": "060771002", "IntlAQSCode": "840060771002" }, "geometry": { "type": "Point", "coordinates": [ -121.26897, 37.95075 ] } },
{ "type": "Feature", "properties": { "index": 167, "SiteName": "Roseville - N.Sunrise\/Douglas", "AgencyName": "California Air Resources Board", "FullAQSCode": "060610006", "IntlAQSCode": "840060610006" }, "geometry": { "type": "Point", "coordinates": [ -121.26498, 38.74643 ] } },
{ "type": "Feature", "properties": { "index": 171, "SiteName": "Chester BAM", "AgencyName": "Northern Sierra AQMD", "FullAQSCode": "060631007", "IntlAQSCode": "840060631007" }, "geometry": { "type": "Point", "coordinates": [ -121.235001, 40.301899 ] } },
{ "type": "Feature", "properties": { "index": 172, "SiteName": "Manteca", "AgencyName": "San Joaquin Valley Unified APCD", "FullAQSCode": "060772010", "IntlAQSCode": "840060772010" }, "geometry": { "type": "Point", "coordinates": [ -121.2208, 37.8027 ] } },
{ "type": "Feature", "properties": { "index": 173, "SiteName": "Sloughhouse", "AgencyName": "Sacramento Metro. AQMD", "FullAQSCode": "060675003", "IntlAQSCode": "840060675003" }, "geometry": { "type": "Point", "coordinates": [ -121.211131, 38.494475 ] } },
{ "type": "Feature", "properties": { "index": 176, "SiteName": "King City AMS", "AgencyName": "Monterey Bay Unified APCD", "FullAQSCode": "060530008", "IntlAQSCode": "840060530008" }, "geometry": { "type": "Point", "coordinates": [ -121.126371, 36.209286 ] } },
{ "type": "Feature", "properties": { "index": 179, "SiteName": "Auburn", "AgencyName": "Placer County APCD", "FullAQSCode": "060610002", "IntlAQSCode": "840060610002" }, "geometry": { "type": "Point", "coordinates": [ -121.103897, 38.937801 ] } },
{ "type": "Feature", "properties": { "index": 181, "SiteName": "Grass Valley", "AgencyName": "Northern Sierra AQMD", "FullAQSCode": "060570005", "IntlAQSCode": "840060570005" }, "geometry": { "type": "Point", "coordinates": [ -121.055603, 39.234402 ] } },
{ "type": "Feature", "properties": { "index": 183, "SiteName": "Cool (Seasonal)", "AgencyName": "California Air Resources Board", "FullAQSCode": "060170020", "IntlAQSCode": "840060170020" }, "geometry": { "type": "Point", "coordinates": [ -121.00337, 38.89094 ] } },
{ "type": "Feature", "properties": { "index": 184, "SiteName": "Modesto - 14th Street", "AgencyName": "California Air Resources Board", "FullAQSCode": "060990005", "IntlAQSCode": "840060990005" }, "geometry": { "type": "Point", "coordinates": [ -120.994212, 37.642165 ] } },
{ "type": "Feature", "properties": { "index": 188, "SiteName": "Colfax", "AgencyName": "Placer County APCD", "FullAQSCode": "060610004", "IntlAQSCode": "840060610004" }, "geometry": { "type": "Point", "coordinates": [ -120.9528, 39.1003 ] } },
{ "type": "Feature", "properties": { "index": 190, "SiteName": "Quincy BAM", "AgencyName": "Northern Sierra AQMD", "FullAQSCode": "060639901", "IntlAQSCode": "840060639901" }, "geometry": { "type": "Point", "coordinates": [ -120.9478, 39.9369 ] } },
{ "type": "Feature", "properties": { "index": 191, "SiteName": "Morro Bay", "AgencyName": "San Luis Obispo County APCD", "FullAQSCode": "060793001", "IntlAQSCode": "840060793001" }, "geometry": { "type": "Point", "coordinates": [ -120.8426, 35.36639 ] } },
{ "type": "Feature", "properties": { "index": 192, "SiteName": "Turlock - S. Minaret Street", "AgencyName": "San Joaquin Valley Unified APCD", "FullAQSCode": "060990006", "IntlAQSCode": "840060990006" }, "geometry": { "type": "Point", "coordinates": [ -120.8358, 37.4883 ] } },
{ "type": "Feature", "properties": { "index": 195, "SiteName": "Placerville", "AgencyName": "California Air Resources Board", "FullAQSCode": "060170010", "IntlAQSCode": "840060170010" }, "geometry": { "type": "Point", "coordinates": [ -120.82192, 38.72528 ] } },
{ "type": "Feature", "properties": { "index": 196, "SiteName": "Jackson - Clinton", "AgencyName": "California Air Resources Board", "FullAQSCode": "060050002", "IntlAQSCode": "840060050002" }, "geometry": { "type": "Point", "coordinates": [ -120.764426, 38.342606 ] } },
{ "type": "Feature", "properties": { "index": 197, "SiteName": "San Andreas", "AgencyName": "California Air Resources Board", "FullAQSCode": "060090001", "IntlAQSCode": "840060090001" }, "geometry": { "type": "Point", "coordinates": [ -120.680277, 38.20185 ] } },
{ "type": "Feature", "properties": { "index": 200, "SiteName": "San Luis Obispo - Higuera St", "AgencyName": "California Air Resources Board", "FullAQSCode": "060792006", "IntlAQSCode": "840060792006" }, "geometry": { "type": "Point", "coordinates": [ -120.6693, 35.25651 ] } },
{ "type": "Feature", "properties": { "index": 203, "SiteName": "Atascadero2", "AgencyName": "San Luis Obispo County APCD", "FullAQSCode": "060798002", "IntlAQSCode": "840060798002" }, "geometry": { "type": "Point", "coordinates": [ -120.666203, 35.494556 ] } },
{ "type": "Feature", "properties": { "index": 207, "SiteName": "Paso Robles - Santa Fe Ave", "AgencyName": "California Air Resources Board", "FullAQSCode": "060790005", "IntlAQSCode": "840060790005" }, "geometry": { "type": "Point", "coordinates": [ -120.656912, 35.614668 ] } },
{ "type": "Feature", "properties": { "index": 209, "SiteName": "MMCA82018", "AgencyName": "California Air Resources Board", "FullAQSCode": "840MMCA82018", "IntlAQSCode": "840840MMCA82018" }, "geometry": { "type": "Point", "coordinates": [ -120.595937, 38.765827 ] } },
{ "type": "Feature", "properties": { "index": 210, "SiteName": "Nipomo Mesa CDF", "AgencyName": "San Luis Obispo County APCD", "FullAQSCode": "060792007", "IntlAQSCode": "840060792007" }, "geometry": { "type": "Point", "coordinates": [ -120.58777, 35.04676 ] } },
{ "type": "Feature", "properties": { "index": 212, "SiteName": "Mesa 2 \/Nipomo", "AgencyName": "San Luis Obispo County APCD", "FullAQSCode": "060792004", "IntlAQSCode": "840060792004" }, "geometry": { "type": "Point", "coordinates": [ -120.56389, 35.02079 ] } },
{ "type": "Feature", "properties": { "index": 215, "SiteName": "Nipomo RP", "AgencyName": "San Luis Obispo County APCD", "FullAQSCode": "060794002", "IntlAQSCode": "840060794002" }, "geometry": { "type": "Point", "coordinates": [ -120.50101, 35.0315 ] } },
{ "type": "Feature", "properties": { "index": 218, "SiteName": "Portola", "AgencyName": "Northern Sierra AQMD", "FullAQSCode": "060631010", "IntlAQSCode": "840060631010" }, "geometry": { "type": "Point", "coordinates": [ -120.471664, 39.808334 ] } },
{ "type": "Feature", "properties": { "index": 219, "SiteName": "Lompoc H Street", "AgencyName": "Santa Barbara County Air Pollution Control District", "FullAQSCode": "060832004", "IntlAQSCode": "840060832004" }, "geometry": { "type": "Point", "coordinates": [ -120.456703, 34.637798 ] } },
{ "type": "Feature", "properties": { "index": 222, "SiteName": "Santa Maria - Broadway", "AgencyName": "California Air Resources Board", "FullAQSCode": "060831008", "IntlAQSCode": "840060831008" }, "geometry": { "type": "Point", "coordinates": [ -120.435611, 34.942872 ] } },
{ "type": "Feature", "properties": { "index": 227, "SiteName": "Merced - S. Coffee Ave", "AgencyName": "San Joaquin Valley Unified APCD", "FullAQSCode": "060470003", "IntlAQSCode": "840060470003" }, "geometry": { "type": "Point", "coordinates": [ -120.433601, 37.2817 ] } },
{ "type": "Feature", "properties": { "index": 230, "SiteName": "Lompoc HS&P", "AgencyName": "Santa Barbara County Air Pollution Control District", "FullAQSCode": "060831013", "IntlAQSCode": "840060831013" }, "geometry": { "type": "Point", "coordinates": [ -120.4278, 34.7256 ] } },
{ "type": "Feature", "properties": { "index": 231, "SiteName": "Tranquillity", "AgencyName": "San Joaquin Valley Unified APCD", "FullAQSCode": "060192009", "IntlAQSCode": "840060192009" }, "geometry": { "type": "Point", "coordinates": [ -120.3822, 36.6324 ] } },
{ "type": "Feature", "properties": { "index": 233, "SiteName": "Sonora - Barretta Street", "AgencyName": "California Air Resources Board", "FullAQSCode": "061090005", "IntlAQSCode": "840061090005" }, "geometry": { "type": "Point", "coordinates": [ -120.378551, 37.98178 ] } },
{ "type": "Feature", "properties": { "index": 234, "SiteName": "Redhills\/Shandon", "AgencyName": "San Luis Obispo County APCD", "FullAQSCode": "060798005", "IntlAQSCode": "840060798005" }, "geometry": { "type": "Point", "coordinates": [ -120.23134, 35.64366 ] } },
{ "type": "Feature", "properties": { "index": 235, "SiteName": "Truckee BAM", "AgencyName": "Northern Sierra AQMD", "FullAQSCode": "060571001", "IntlAQSCode": "840060571001" }, "geometry": { "type": "Point", "coordinates": [ -120.170303, 39.3386 ] } },
{ "type": "Feature", "properties": { "index": 236, "SiteName": "Tahoe City", "AgencyName": "Placer County APCD", "FullAQSCode": "060611004", "IntlAQSCode": "840060611004" }, "geometry": { "type": "Point", "coordinates": [ -120.1488, 39.166 ] } },
{ "type": "Feature", "properties": { "index": 237, "SiteName": "Huron", "AgencyName": "San Joaquin Valley Unified APCD", "FullAQSCode": "060192008", "IntlAQSCode": "840060192008" }, "geometry": { "type": "Point", "coordinates": [ -120.0991, 36.1994 ] } },
{ "type": "Feature", "properties": { "index": 238, "SiteName": "Santa Ynez", "AgencyName": "Santa Barbara County Air Pollution Control District", "FullAQSCode": "060833001", "IntlAQSCode": "840060833001" }, "geometry": { "type": "Point", "coordinates": [ -120.07506, 34.605819 ] } },
{ "type": "Feature", "properties": { "index": 260, "SiteName": "Paradise Road", "AgencyName": "Santa Barbara County Air Pollution Control District", "FullAQSCode": "060831014", "IntlAQSCode": "840060831014" }, "geometry": { "type": "Point", "coordinates": [ -119.7906, 34.5414 ] } },
{ "type": "Feature", "properties": { "index": 239, "SiteName": "Las Flores Canyon", "AgencyName": "Santa Barbara County Air Pollution Control District", "FullAQSCode": "060831025", "IntlAQSCode": "840060831025" }, "geometry": { "type": "Point", "coordinates": [ -120.0458, 34.4897 ] } },
{ "type": "Feature", "properties": { "index": 241, "SiteName": "Carrizo", "AgencyName": "San Luis Obispo County APCD", "FullAQSCode": "060798006", "IntlAQSCode": "840060798006" }, "geometry": { "type": "Point", "coordinates": [ -120.04013, 35.35474 ] } },
{ "type": "Feature", "properties": { "index": 242, "SiteName": "Madera-City", "AgencyName": "San Joaquin Valley Unified APCD", "FullAQSCode": "060392010", "IntlAQSCode": "840060392010" }, "geometry": { "type": "Point", "coordinates": [ -120.0341, 36.9533 ] } },
{ "type": "Feature", "properties": { "index": 245, "SiteName": "Echo Summit (seasonal) - SLT695", "AgencyName": "California Air Resources Board", "FullAQSCode": "060170012", "IntlAQSCode": "840060170012" }, "geometry": { "type": "Point", "coordinates": [ -120.03308, 38.81161 ] } },
{ "type": "Feature", "properties": { "index": 246, "SiteName": "Madera - Pump Yard", "AgencyName": "San Joaquin Valley Unified APCD", "FullAQSCode": "060390004", "IntlAQSCode": "840060390004" }, "geometry": { "type": "Point", "coordinates": [ -120.01, 36.8669 ] } },
{ "type": "Feature", "properties": { "index": 247, "SiteName": "South Lake Tahoe - Sandy Way", "AgencyName": "California Air Resources Board", "FullAQSCode": "060170011", "IntlAQSCode": "840060170011" }, "geometry": { "type": "Point", "coordinates": [ -119.97061, 38.94498 ] } },
{ "type": "Feature", "properties": { "index": 250, "SiteName": "Jerseydale (seasonal)", "AgencyName": "California Air Resources Board", "FullAQSCode": "060430006", "IntlAQSCode": "840060430006" }, "geometry": { "type": "Point", "coordinates": [ -119.83957, 37.54377 ] } },
{ "type": "Feature", "properties": { "index": 251, "SiteName": "Goleta", "AgencyName": "Santa Barbara County Air Pollution Control District", "FullAQSCode": "060832011", "IntlAQSCode": "840060832011" }, "geometry": { "type": "Point", "coordinates": [ -119.827797, 34.445301 ] } },
{ "type": "Feature", "properties": { "index": 262, "SiteName": "Fresno - Garland", "AgencyName": "California Air Resources Board", "FullAQSCode": "060190011", "IntlAQSCode": "840060190011" }, "geometry": { "type": "Point", "coordinates": [ -119.77321, 36.78538 ] } },
{ "type": "Feature", "properties": { "index": 270, "SiteName": "Santa Rosa Rancheria", "AgencyName": "Tachi-Yokut Tribe", "FullAQSCode": "TT5420500", "IntlAQSCode": "000TT5420500" }, "geometry": { "type": "Point", "coordinates": [ -119.765083, 36.233333 ] } },
{ "type": "Feature", "properties": { "index": 276, "SiteName": "Fresno - Drummond Street", "AgencyName": "San Joaquin Valley Unified APCD", "FullAQSCode": "060190007", "IntlAQSCode": "840060190007" }, "geometry": { "type": "Point", "coordinates": [ -119.7414, 36.7056 ] } },
{ "type": "Feature", "properties": { "index": 285, "SiteName": "Clovis - N. Villa Ave", "AgencyName": "San Joaquin Valley Unified APCD", "FullAQSCode": "060195001", "IntlAQSCode": "840060195001" }, "geometry": { "type": "Point", "coordinates": [ -119.7164, 36.819199 ] } },
{ "type": "Feature", "properties": { "index": 288, "SiteName": "Yosemite NP Turtleback Dome", "AgencyName": "National Park Service", "FullAQSCode": "060430003", "IntlAQSCode": "840060430003" }, "geometry": { "type": "Point", "coordinates": [ -119.7061, 37.713299 ] } },
{ "type": "Feature", "properties": { "index": 293, "SiteName": "Yosemite Village - Visitor Center", "AgencyName": "California Air Resources Board", "FullAQSCode": "060431001", "IntlAQSCode": "840060431001" }, "geometry": { "type": "Point", "coordinates": [ -119.587094, 37.748707 ] } },
{ "type": "Feature", "properties": { "index": 289, "SiteName": "Santa Barbara", "AgencyName": "Santa Barbara County Air Pollution Control District", "FullAQSCode": "060830011", "IntlAQSCode": "840060830011" }, "geometry": { "type": "Point", "coordinates": [ -119.69091, 34.42775 ] } },
{ "type": "Feature", "properties": { "index": 292, "SiteName": "Hanford - S. Irwin Street", "AgencyName": "San Joaquin Valley Unified APCD", "FullAQSCode": "060311004", "IntlAQSCode": "840060311004" }, "geometry": { "type": "Point", "coordinates": [ -119.6436, 36.3144 ] } },
{ "type": "Feature", "properties": { "index": 294, "SiteName": "Parlier", "AgencyName": "San Joaquin Valley Unified APCD", "FullAQSCode": "060194001", "IntlAQSCode": "840060194001" }, "geometry": { "type": "Point", "coordinates": [ -119.5036, 36.5975 ] } },
{ "type": "Feature", "properties": { "index": 295, "SiteName": "Carpinteria", "AgencyName": "Santa Barbara County Air Pollution Control District", "FullAQSCode": "060831021", "IntlAQSCode": "840060831021" }, "geometry": { "type": "Point", "coordinates": [ -119.457497, 34.402802 ] } },
{ "type": "Feature", "properties": { "index": 296, "SiteName": "Maricopa - Stanilaus Street", "AgencyName": "San Joaquin Valley Unified APCD", "FullAQSCode": "060290008", "IntlAQSCode": "840060290008" }, "geometry": { "type": "Point", "coordinates": [ -119.4039, 35.0544 ] } },
{ "type": "Feature", "properties": { "index": 297, "SiteName": "Visalia - N. Church Street", "AgencyName": "California Air Resources Board", "FullAQSCode": "061072002", "IntlAQSCode": "840061072002" }, "geometry": { "type": "Point", "coordinates": [ -119.29095, 36.33252 ] } },
{ "type": "Feature", "properties": { "index": 301, "SiteName": "Shafter - Walker Street", "AgencyName": "California Air Resources Board", "FullAQSCode": "060296001", "IntlAQSCode": "840060296001" }, "geometry": { "type": "Point", "coordinates": [ -119.27264, 35.50349 ] } },
{ "type": "Feature", "properties": { "index": 304, "SiteName": "Ojai - Ojai Ave.", "AgencyName": "Ventura County  APCD", "FullAQSCode": "061111004", "IntlAQSCode": "840061111004" }, "geometry": { "type": "Point", "coordinates": [ -119.2303, 34.4483 ] } },
{ "type": "Feature", "properties": { "index": 306, "SiteName": "El Rio - Rio Mesa School #2", "AgencyName": "Ventura County  APCD", "FullAQSCode": "061113001", "IntlAQSCode": "840061113001" }, "geometry": { "type": "Point", "coordinates": [ -119.1336, 34.2653 ] } },
{ "type": "Feature", "properties": { "index": 309, "SiteName": "Lee Vining", "AgencyName": "Great Basin Unified Air Pollution Control District", "FullAQSCode": "060510005", "IntlAQSCode": "840060510005" }, "geometry": { "type": "Point", "coordinates": [ -119.120278, 37.962069 ] } },
{ "type": "Feature", "properties": { "index": 323, "SiteName": "Mono Shore", "AgencyName": "Great Basin Unified Air Pollution Control District", "FullAQSCode": "060510011", "IntlAQSCode": "840060510011" }, "geometry": { "type": "Point", "coordinates": [ -118.9477, 38.0697 ] } },
{ "type": "Feature", "properties": { "index": 311, "SiteName": "Bakersfield - California Ave", "AgencyName": "California Air Resources Board", "FullAQSCode": "060290014", "IntlAQSCode": "840060290014" }, "geometry": { "type": "Point", "coordinates": [ -119.062613, 35.356615 ] } },
{ "type": "Feature", "properties": { "index": 314, "SiteName": "Porterville-NFS", "AgencyName": "San Joaquin Valley Unified APCD", "FullAQSCode": "061072010", "IntlAQSCode": "840061072010" }, "geometry": { "type": "Point", "coordinates": [ -119.055, 36.0319 ] } },
{ "type": "Feature", "properties": { "index": 316, "SiteName": "Pinehurst", "AgencyName": "Forest Service", "FullAQSCode": "840060199999", "IntlAQSCode": "840840060199999" }, "geometry": { "type": "Point", "coordinates": [ -119.0189, 36.6972 ] } },
{ "type": "Feature", "properties": { "index": 318, "SiteName": "Bakersfield-Muni", "AgencyName": "San Joaquin Valley Unified APCD", "FullAQSCode": "060292012", "IntlAQSCode": "840060292012" }, "geometry": { "type": "Point", "coordinates": [ -119.0, 35.3313 ] } },
{ "type": "Feature", "properties": { "index": 321, "SiteName": "Mammoth Lakes", "AgencyName": "Great Basin Unified Air Pollution Control District", "FullAQSCode": "060510001", "IntlAQSCode": "840060510001" }, "geometry": { "type": "Point", "coordinates": [ -118.966515, 37.645718 ] } },
{ "type": "Feature", "properties": { "index": 324, "SiteName": "Thousand Oaks - Moorpark Road", "AgencyName": "Ventura County  APCD", "FullAQSCode": "061110007", "IntlAQSCode": "840061110007" }, "geometry": { "type": "Point", "coordinates": [ -118.8694, 34.21 ] } },
{ "type": "Feature", "properties": { "index": 326, "SiteName": "Lebec", "AgencyName": "San Joaquin Valley Unified APCD", "FullAQSCode": "060292009", "IntlAQSCode": "840060292009" }, "geometry": { "type": "Point", "coordinates": [ -118.8647, 34.8416 ] } },
{ "type": "Feature", "properties": { "index": 327, "SiteName": "Edison", "AgencyName": "California Air Resources Board", "FullAQSCode": "060290007", "IntlAQSCode": "840060290007" }, "geometry": { "type": "Point", "coordinates": [ -118.851825, 35.345607 ] } },
{ "type": "Feature", "properties": { "index": 329, "SiteName": "Sequoia and Kings Canyon - Ash Mountain", "AgencyName": "National Park Service", "FullAQSCode": "061070009", "IntlAQSCode": "840061070009" }, "geometry": { "type": "Point", "coordinates": [ -118.826897, 36.489399 ] } },
{ "type": "Feature", "properties": { "index": 336, "SiteName": "Sequoia and Kings Canyon NP - Lower Kaweah", "AgencyName": "National Park Service", "FullAQSCode": "061070006", "IntlAQSCode": "840061070006" }, "geometry": { "type": "Point", "coordinates": [ -118.777199, 36.5672 ] } },
{ "type": "Feature", "properties": { "index": 331, "SiteName": "Springville", "AgencyName": "Forest Service", "FullAQSCode": "840061079998", "IntlAQSCode": "840840061079998" }, "geometry": { "type": "Point", "coordinates": [ -118.8108, 36.1358 ] } },
{ "type": "Feature", "properties": { "index": 333, "SiteName": "Piru - Pacific", "AgencyName": "Ventura County  APCD", "FullAQSCode": "061110009", "IntlAQSCode": "840061110009" }, "geometry": { "type": "Point", "coordinates": [ -118.81, 34.4044 ] } },
{ "type": "Feature", "properties": { "index": 337, "SiteName": "Simi Valley - Cochran Street", "AgencyName": "Ventura County  APCD", "FullAQSCode": "061112002", "IntlAQSCode": "840061112002" }, "geometry": { "type": "Point", "coordinates": [ -118.6847, 34.2775 ] } },
{ "type": "Feature", "properties": { "index": 340, "SiteName": "Reseda", "AgencyName": "South Coast AQMD", "FullAQSCode": "060371201", "IntlAQSCode": "840060371201" }, "geometry": { "type": "Point", "coordinates": [ -118.5331, 34.1992 ] } },
{ "type": "Feature", "properties": { "index": 344, "SiteName": "Santa Clarita", "AgencyName": "South Coast AQMD", "FullAQSCode": "060376012", "IntlAQSCode": "840060376012" }, "geometry": { "type": "Point", "coordinates": [ -118.5283, 34.3833 ] } },
{ "type": "Feature", "properties": { "index": 346, "SiteName": "West Los Angeles - VA Hospital", "AgencyName": "South Coast AQMD", "FullAQSCode": "060370113", "IntlAQSCode": "840060370113" }, "geometry": { "type": "Point", "coordinates": [ -118.456386, 34.051097 ] } },
{ "type": "Feature", "properties": { "index": 349, "SiteName": "LAX-Hastings", "AgencyName": "South Coast AQMD", "FullAQSCode": "060375005", "IntlAQSCode": "840060375005" }, "geometry": { "type": "Point", "coordinates": [ -118.43046, 33.95507 ] } },
{ "type": "Feature", "properties": { "index": 353, "SiteName": "Kernville", "AgencyName": "Forest Service", "FullAQSCode": "840060299999", "IntlAQSCode": "840840060299999" }, "geometry": { "type": "Point", "coordinates": [ -118.4175, 35.755 ] } },
{ "type": "Feature", "properties": { "index": 355, "SiteName": "North Holywood", "AgencyName": "South Coast AQMD", "FullAQSCode": "840060374010", "IntlAQSCode": "840840060374010" }, "geometry": { "type": "Point", "coordinates": [ -118.363036, 34.181977 ] } },
{ "type": "Feature", "properties": { "index": 357, "SiteName": "North Holywood", "AgencyName": "South Coast AQMD", "FullAQSCode": "060374010", "IntlAQSCode": "840060374010" }, "geometry": { "type": "Point", "coordinates": [ -118.363036, 34.181977 ] } },
{ "type": "Feature", "properties": { "index": 358, "SiteName": "NCore - White Mountain Research Station - OVL", "AgencyName": "Great Basin Unified Air Pollution Control District", "FullAQSCode": "060270002", "IntlAQSCode": "840060270002" }, "geometry": { "type": "Point", "coordinates": [ -118.330835, 37.360701 ] } },
{ "type": "Feature", "properties": { "index": 363, "SiteName": "Los Angeles - N. Main Street", "AgencyName": "South Coast AQMD", "FullAQSCode": "060371103", "IntlAQSCode": "840060371103" }, "geometry": { "type": "Point", "coordinates": [ -118.226755, 34.066429 ] } },
{ "type": "Feature", "properties": { "index": 369, "SiteName": "Compton", "AgencyName": "South Coast AQMD", "FullAQSCode": "060371302", "IntlAQSCode": "840060371302" }, "geometry": { "type": "Point", "coordinates": [ -118.205, 33.9014 ] } },
{ "type": "Feature", "properties": { "index": 372, "SiteName": "710 Near Road", "AgencyName": "South Coast AQMD", "FullAQSCode": "060374008", "IntlAQSCode": "840060374008" }, "geometry": { "type": "Point", "coordinates": [ -118.200707, 33.859662 ] } },
{ "type": "Feature", "properties": { "index": 373, "SiteName": "South Long Beach", "AgencyName": "South Coast AQMD", "FullAQSCode": "060374004", "IntlAQSCode": "840060374004" }, "geometry": { "type": "Point", "coordinates": [ -118.175278, 33.792221 ] } },
{ "type": "Feature", "properties": { "index": 374, "SiteName": "Long Beach Signal Hill", "AgencyName": "South Coast AQMD", "FullAQSCode": "840060374009", "IntlAQSCode": "840840060374009" }, "geometry": { "type": "Point", "coordinates": [ -118.171019, 33.793713 ] } },
{ "type": "Feature", "properties": { "index": 375, "SiteName": "Long Beach Signal Hill", "AgencyName": "South Coast AQMD", "FullAQSCode": "060374009", "IntlAQSCode": "840060374009" }, "geometry": { "type": "Point", "coordinates": [ -118.171019, 33.793713 ] } },
{ "type": "Feature", "properties": { "index": 378, "SiteName": "Mojave - 923 Poole St.", "AgencyName": "California Air Resources Board", "FullAQSCode": "060290011", "IntlAQSCode": "840060290011" }, "geometry": { "type": "Point", "coordinates": [ -118.14778, 35.05045 ] } },
{ "type": "Feature", "properties": { "index": 381, "SiteName": "Lancaster-Division", "AgencyName": "Mojave Desert AQMD", "FullAQSCode": "060379033", "IntlAQSCode": "840060379033" }, "geometry": { "type": "Point", "coordinates": [ -118.130689, 34.669589 ] } },
{ "type": "Feature", "properties": { "index": 384, "SiteName": "Pasadena", "AgencyName": "South Coast AQMD", "FullAQSCode": "060372005", "IntlAQSCode": "840060372005" }, "geometry": { "type": "Point", "coordinates": [ -118.127142, 34.13263 ] } },
{ "type": "Feature", "properties": { "index": 387, "SiteName": "Pico Rivera", "AgencyName": "South Coast AQMD", "FullAQSCode": "060371602", "IntlAQSCode": "840060371602" }, "geometry": { "type": "Point", "coordinates": [ -118.068484, 34.010283 ] } },
{ "type": "Feature", "properties": { "index": 390, "SiteName": "Lone Pine", "AgencyName": "Great Basin Unified Air Pollution Control District", "FullAQSCode": "060270004", "IntlAQSCode": "840060270004" }, "geometry": { "type": "Point", "coordinates": [ -118.0578, 36.609 ] } },
{ "type": "Feature", "properties": { "index": 391, "SiteName": "Olancha", "AgencyName": "Great Basin Unified Air Pollution Control District", "FullAQSCode": "840060270023", "IntlAQSCode": "840840060270023" }, "geometry": { "type": "Point", "coordinates": [ -118.011661, 36.280596 ] } },
{ "type": "Feature", "properties": { "index": 392, "SiteName": "Bill Stanley", "AgencyName": "Great Basin Unified Air Pollution Control District", "FullAQSCode": "060270026", "IntlAQSCode": "840060270026" }, "geometry": { "type": "Point", "coordinates": [ -118.0108, 36.3619 ] } },
{ "type": "Feature", "properties": { "index": 393, "SiteName": "North Beach", "AgencyName": "Great Basin Unified Air Pollution Control District", "FullAQSCode": "060270029", "IntlAQSCode": "840060270029" }, "geometry": { "type": "Point", "coordinates": [ -117.990055, 36.542233 ] } },
{ "type": "Feature", "properties": { "index": 394, "SiteName": "Dirty Socks", "AgencyName": "Great Basin Unified Air Pollution Control District", "FullAQSCode": "060270022", "IntlAQSCode": "840060270022" }, "geometry": { "type": "Point", "coordinates": [ -117.9551, 36.3261 ] } },
{ "type": "Feature", "properties": { "index": 398, "SiteName": "Coso Junction", "AgencyName": "Great Basin Unified Air Pollution Control District", "FullAQSCode": "060271001", "IntlAQSCode": "840060271001" }, "geometry": { "type": "Point", "coordinates": [ -117.9439, 36.0494 ] } },
{ "type": "Feature", "properties": { "index": 399, "SiteName": "Lizard Tail", "AgencyName": "Great Basin Unified Air Pollution Control District", "FullAQSCode": "060270028", "IntlAQSCode": "840060270028" }, "geometry": { "type": "Point", "coordinates": [ -117.9418, 36.5432 ] } },
{ "type": "Feature", "properties": { "index": 407, "SiteName": "Shell Cut", "AgencyName": "Great Basin Unified Air Pollution Control District", "FullAQSCode": "060270025", "IntlAQSCode": "840060270025" }, "geometry": { "type": "Point", "coordinates": [ -117.8976, 36.3663 ] } },
{ "type": "Feature", "properties": { "index": 408, "SiteName": "Keeler", "AgencyName": "Great Basin Unified Air Pollution Control District", "FullAQSCode": "060271003", "IntlAQSCode": "840060271003" }, "geometry": { "type": "Point", "coordinates": [ -117.871, 36.4878 ] } },
{ "type": "Feature", "properties": { "index": 410, "SiteName": "Mill Site", "AgencyName": "Great Basin Unified Air Pollution Control District", "FullAQSCode": "060270030", "IntlAQSCode": "840060270030" }, "geometry": { "type": "Point", "coordinates": [ -117.8519, 36.4581 ] } },
{ "type": "Feature", "properties": { "index": 475, "SiteName": "Death Valley NP", "AgencyName": "National Park Service", "FullAQSCode": "060270101", "IntlAQSCode": "840060270101" }, "geometry": { "type": "Point", "coordinates": [ -116.8481, 36.5092 ] } },
{ "type": "Feature", "properties": { "index": 395, "SiteName": "La Habra", "AgencyName": "South Coast AQMD", "FullAQSCode": "060595001", "IntlAQSCode": "840060595001" }, "geometry": { "type": "Point", "coordinates": [ -117.952586, 33.925062 ] } },
{ "type": "Feature", "properties": { "index": 400, "SiteName": "Anaheim", "AgencyName": "South Coast AQMD", "FullAQSCode": "060590007", "IntlAQSCode": "840060590007" }, "geometry": { "type": "Point", "coordinates": [ -117.938509, 33.830586 ] } },
{ "type": "Feature", "properties": { "index": 402, "SiteName": "Azusa", "AgencyName": "South Coast AQMD", "FullAQSCode": "060370002", "IntlAQSCode": "840060370002" }, "geometry": { "type": "Point", "coordinates": [ -117.923963, 34.136474 ] } },
{ "type": "Feature", "properties": { "index": 405, "SiteName": "Anaheim Near Road", "AgencyName": "South Coast AQMD", "FullAQSCode": "060590008", "IntlAQSCode": "840060590008" }, "geometry": { "type": "Point", "coordinates": [ -117.918759, 33.819305 ] } },
{ "type": "Feature", "properties": { "index": 411, "SiteName": "Glendora - Laurel", "AgencyName": "South Coast AQMD", "FullAQSCode": "060370016", "IntlAQSCode": "840060370016" }, "geometry": { "type": "Point", "coordinates": [ -117.8508, 34.1439 ] } },
{ "type": "Feature", "properties": { "index": 416, "SiteName": "Pomona", "AgencyName": "South Coast AQMD", "FullAQSCode": "060371701", "IntlAQSCode": "840060371701" }, "geometry": { "type": "Point", "coordinates": [ -117.7506, 34.0667 ] } },
{ "type": "Feature", "properties": { "index": 419, "SiteName": "Mission Viejo", "AgencyName": "South Coast AQMD", "FullAQSCode": "060592022", "IntlAQSCode": "840060592022" }, "geometry": { "type": "Point", "coordinates": [ -117.675875, 33.629991 ] } },
{ "type": "Feature", "properties": { "index": 422, "SiteName": "Upland", "AgencyName": "South Coast AQMD", "FullAQSCode": "060711004", "IntlAQSCode": "840060711004" }, "geometry": { "type": "Point", "coordinates": [ -117.629096, 34.10366 ] } },
{ "type": "Feature", "properties": { "index": 424, "SiteName": "60 Near Road", "AgencyName": "South Coast AQMD", "FullAQSCode": "060710027", "IntlAQSCode": "840060710027" }, "geometry": { "type": "Point", "coordinates": [ -117.617403, 34.0309 ] } },
{ "type": "Feature", "properties": { "index": 425, "SiteName": "Phelan - Beekley Road & Phelan Road", "AgencyName": "Mojave Desert AQMD", "FullAQSCode": "060710012", "IntlAQSCode": "840060710012" }, "geometry": { "type": "Point", "coordinates": [ -117.589813, 34.425052 ] } },
{ "type": "Feature", "properties": { "index": 426, "SiteName": "Ontario Near Road", "AgencyName": "South Coast AQMD", "FullAQSCode": "060710026", "IntlAQSCode": "840060710026" }, "geometry": { "type": "Point", "coordinates": [ -117.525796, 34.068114 ] } },
{ "type": "Feature", "properties": { "index": 428, "SiteName": "Mira Loma - Van Buren", "AgencyName": "South Coast AQMD", "FullAQSCode": "060658005", "IntlAQSCode": "840060658005" }, "geometry": { "type": "Point", "coordinates": [ -117.4925, 33.996387 ] } },
{ "type": "Feature", "properties": { "index": 431, "SiteName": "Fontana - Arrow Highway", "AgencyName": "South Coast AQMD", "FullAQSCode": "060712002", "IntlAQSCode": "840060712002" }, "geometry": { "type": "Point", "coordinates": [ -117.491982, 34.100132 ] } },
{ "type": "Feature", "properties": { "index": 435, "SiteName": "Riverside - Rubidoux", "AgencyName": "South Coast AQMD", "FullAQSCode": "060658001", "IntlAQSCode": "840060658001" }, "geometry": { "type": "Point", "coordinates": [ -117.415831, 33.999449 ] } },
{ "type": "Feature", "properties": { "index": 441, "SiteName": "Camp Pendleton", "AgencyName": "San Diego APCD", "FullAQSCode": "060731008", "IntlAQSCode": "840060731008" }, "geometry": { "type": "Point", "coordinates": [ -117.396156, 33.217026 ] } },
{ "type": "Feature", "properties": { "index": 443, "SiteName": "Trona - Athol and Telegraph", "AgencyName": "Mojave Desert AQMD", "FullAQSCode": "060711234", "IntlAQSCode": "840060711234" }, "geometry": { "type": "Point", "coordinates": [ -117.372109, 35.774455 ] } },
{ "type": "Feature", "properties": { "index": 445, "SiteName": "Lake Elsinore - W. Flint Street", "AgencyName": "South Coast AQMD", "FullAQSCode": "060659001", "IntlAQSCode": "840060659001" }, "geometry": { "type": "Point", "coordinates": [ -117.331027, 33.676535 ] } },
{ "type": "Feature", "properties": { "index": 450, "SiteName": "Victorville - Park Avenue", "AgencyName": "Mojave Desert AQMD", "FullAQSCode": "060710306", "IntlAQSCode": "840060710306" }, "geometry": { "type": "Point", "coordinates": [ -117.3306, 34.51 ] } },
{ "type": "Feature", "properties": { "index": 452, "SiteName": "Hesperia - Olive Street", "AgencyName": "Mojave Desert AQMD", "FullAQSCode": "060714001", "IntlAQSCode": "840060714001" }, "geometry": { "type": "Point", "coordinates": [ -117.285602, 34.416506 ] } },
{ "type": "Feature", "properties": { "index": 454, "SiteName": "San Bernadino - 4th Street", "AgencyName": "South Coast AQMD", "FullAQSCode": "060719004", "IntlAQSCode": "840060719004" }, "geometry": { "type": "Point", "coordinates": [ -117.274063, 34.106678 ] } },
{ "type": "Feature", "properties": { "index": 458, "SiteName": "Crestline - Lake Gregory", "AgencyName": "South Coast AQMD", "FullAQSCode": "060710005", "IntlAQSCode": "840060710005" }, "geometry": { "type": "Point", "coordinates": [ -117.272275, 34.243132 ] } },
{ "type": "Feature", "properties": { "index": 460, "SiteName": "Perris", "AgencyName": "South Coast AQMD", "FullAQSCode": "060656001", "IntlAQSCode": "840060656001" }, "geometry": { "type": "Point", "coordinates": [ -117.227639, 33.789331 ] } },
{ "type": "Feature", "properties": { "index": 461, "SiteName": "Redlands - Dearborn", "AgencyName": "South Coast AQMD", "FullAQSCode": "060714003", "IntlAQSCode": "840060714003" }, "geometry": { "type": "Point", "coordinates": [ -117.147347, 34.059626 ] } },
{ "type": "Feature", "properties": { "index": 462, "SiteName": "San Diego - Sherman Elementary School", "AgencyName": "San Diego APCD", "FullAQSCode": "840060731026", "IntlAQSCode": "840840060731026" }, "geometry": { "type": "Point", "coordinates": [ -117.142665, 32.710177 ] } },
{ "type": "Feature", "properties": { "index": 464, "SiteName": "San Diego - Kearny Villa Rd.", "AgencyName": "San Diego APCD", "FullAQSCode": "060731016", "IntlAQSCode": "840060731016" }, "geometry": { "type": "Point", "coordinates": [ -117.123894, 32.845467 ] } },
{ "type": "Feature", "properties": { "index": 465, "SiteName": "Temecula (Lake Skinner)", "AgencyName": "South Coast AQMD", "FullAQSCode": "060650016", "IntlAQSCode": "840060650016" }, "geometry": { "type": "Point", "coordinates": [ -117.072197, 33.583099 ] } },
{ "type": "Feature", "properties": { "index": 467, "SiteName": "Barstow", "AgencyName": "Mojave Desert AQMD", "FullAQSCode": "060710001", "IntlAQSCode": "840060710001" }, "geometry": { "type": "Point", "coordinates": [ -117.024756, 34.894054 ] } },
{ "type": "Feature", "properties": { "index": 469, "SiteName": "El Cajon - Lexington Elementary School", "AgencyName": "San Diego APCD", "FullAQSCode": "060731022", "IntlAQSCode": "840060731022" }, "geometry": { "type": "Point", "coordinates": [ -116.944222, 32.789561 ] } },
{ "type": "Feature", "properties": { "index": 470, "SiteName": "MMCA82023", "AgencyName": "California Air Resources Board", "FullAQSCode": "840MMCA82023", "IntlAQSCode": "840840MMCA82023" }, "geometry": { "type": "Point", "coordinates": [ -116.911032, 34.240737 ] } },
{ "type": "Feature", "properties": { "index": 471, "SiteName": "Lucerne Valley", "AgencyName": "Mojave Desert AQMD", "FullAQSCode": "060710013", "IntlAQSCode": "840060710013" }, "geometry": { "type": "Point", "coordinates": [ -116.906874, 34.4101 ] } },
{ "type": "Feature", "properties": { "index": 472, "SiteName": "Banning - South Hathaway Street", "AgencyName": "South Coast AQMD", "FullAQSCode": "060650012", "IntlAQSCode": "840060650012" }, "geometry": { "type": "Point", "coordinates": [ -116.858419, 33.920758 ] } },
{ "type": "Feature", "properties": { "index": 476, "SiteName": "Alpine", "AgencyName": "San Diego APCD", "FullAQSCode": "060731006", "IntlAQSCode": "840060731006" }, "geometry": { "type": "Point", "coordinates": [ -116.768326, 32.842297 ] } },
{ "type": "Feature", "properties": { "index": 478, "SiteName": "Palm Springs - Fire Station", "AgencyName": "South Coast AQMD", "FullAQSCode": "060655001", "IntlAQSCode": "840060655001" }, "geometry": { "type": "Point", "coordinates": [ -116.540965, 33.852605 ] } },
{ "type": "Feature", "properties": { "index": 482, "SiteName": "Joshua Tree NP - Black Rock", "AgencyName": "National Park Service", "FullAQSCode": "060719002", "IntlAQSCode": "840060719002" }, "geometry": { "type": "Point", "coordinates": [ -116.3906, 34.0714 ] } },
{ "type": "Feature", "properties": { "index": 483, "SiteName": "Indio - Jackson Street", "AgencyName": "South Coast AQMD", "FullAQSCode": "060652002", "IntlAQSCode": "840060652002" }, "geometry": { "type": "Point", "coordinates": [ -116.215394, 33.708566 ] } },
{ "type": "Feature", "properties": { "index": 486, "SiteName": "Indio-29 Palms", "AgencyName": "Twenty-Nine Palms Band of Mission Indians", "FullAQSCode": "840TT5980500", "IntlAQSCode": "000840TT5980500" }, "geometry": { "type": "Point", "coordinates": [ -116.1897, 33.71969 ] } },
{ "type": "Feature", "properties": { "index": 489, "SiteName": "Saul Martinez", "AgencyName": "South Coast AQMD", "FullAQSCode": "060652005", "IntlAQSCode": "840060652005" }, "geometry": { "type": "Point", "coordinates": [ -116.063823, 33.572019 ] } },
{ "type": "Feature", "properties": { "index": 494, "SiteName": "Joshua Tree NP - Cottonwood Canyon 2", "AgencyName": "National Park Service", "FullAQSCode": "060650010", "IntlAQSCode": "840060650010" }, "geometry": { "type": "Point", "coordinates": [ -115.8201, 33.7472 ] } },
{ "type": "Feature", "properties": { "index": 496, "SiteName": "Mojave NPr", "AgencyName": "National Park Service", "FullAQSCode": "060711001", "IntlAQSCode": "840060711001" }, "geometry": { "type": "Point", "coordinates": [ -115.776703, 35.101898 ] } },
{ "type": "Feature", "properties": { "index": 498, "SiteName": "Westmorland - 570 Cook St", "AgencyName": "Imperial County Air Pollution Control District", "FullAQSCode": "060254003", "IntlAQSCode": "840060254003" }, "geometry": { "type": "Point", "coordinates": [ -115.6225, 33.0325 ] } },
{ "type": "Feature", "properties": { "index": 500, "SiteName": "El Centro - 9th Street", "AgencyName": "Imperial County Air Pollution Control District", "FullAQSCode": "060251003", "IntlAQSCode": "840060251003" }, "geometry": { "type": "Point", "coordinates": [ -115.5617, 32.7917 ] } },
{ "type": "Feature", "properties": { "index": 502, "SiteName": "Niland - English Road", "AgencyName": "Imperial County Air Pollution Control District", "FullAQSCode": "060254004", "IntlAQSCode": "840060254004" }, "geometry": { "type": "Point", "coordinates": [ -115.5444, 33.2136 ] } },
{ "type": "Feature", "properties": { "index": 504, "SiteName": "Brawley - 220 Main Street", "AgencyName": "Imperial County Air Pollution Control District", "FullAQSCode": "060250007", "IntlAQSCode": "840060250007" }, "geometry": { "type": "Point", "coordinates": [ -115.5383, 32.978298 ] } },
{ "type": "Feature", "properties": { "index": 541, "SiteName": "Blythe", "AgencyName": "California Air Resources Board", "FullAQSCode": "060659003", "IntlAQSCode": "840060659003" }, "geometry": { "type": "Point", "coordinates": [ -114.60209, 33.61235 ] } }
]
}
